{"version": 0.6, "generator": "Overpass API 0.7.60.6 e2dc3e5b", "osm3s": {"timestamp_osm_base": "2023-06-29T11:05:30Z", "copyright": "The data included in this document is from www.openstreetmap.org. The data is made available under ODbL."}, "elements": [{"type": "node", "id": 387850621, "lat": 47.3710523, "lon": 8.5438506}, {"type": "node", "id": 387850622, "lat": 47.3710108, "lon": 8.5437423}, {"type": "node", "id": 955271557, "lat": 47.3710009, "lon": 8.54386}, {"type": "node", "id": 955271587, "lat": 47.3708223, "lon": 8.5437473}, {"type": "node", "id": 955271826, "lat": 47.3708158, "lon": 8.5439063}, {"type": "node", "id": 2864633790, "lat": 47.3708467, "lon": 8.5437463}, {"type": "node", "id": 2864633791, "lat": 47.3708495, "lon": 8.5437891}, {"type": "node", "id": 2864633792, "lat": 47.3709184, "lon": 8.5437705}, {"type": "node", "id": 2864633793, "lat": 47.3709299, "lon": 8.5438755}, {"type": "way", "id": 81993590, "nodes": [2864633792, 2864633793, 955271826, 955271587, 2864633790, 2864633791, 2864633792], "tags": {"addr:city": "Z\u00fcrich", "addr:country": "CH", "addr:housenumber": "2", "addr:postcode": "8001", "addr:street": "N\u00e4gelihof", "building": "yes", "source": "Stadt Z\u00fcrich Open Government Data; Geomatik + Vermessung; Tiefbau- und Entsorgungsdepartement"}}, {"type": "way", "id": 282514042, "nodes": [2864633792, 387850622, 387850621, 955271557, 2864633793, 2864633792], "tags": {"addr:city": "Z\u00fcrich", "addr:country": "CH", "addr:housenumber": "1b", "addr:postcode": "8001", "addr:street": "N\u00e4gelihof", "building": "yes", "source": "Stadt Z\u00fcrich Open Government Data; Geomatik + Vermessung; Tiefbau- und Entsorgungsdepartement"}}]}