{"version": 0.6, "generator": "Overpass API 0.7.60.6 e2dc3e5b", "osm3s": {"timestamp_osm_base": "2023-06-29T15:01:48Z", "copyright": "The data included in this document is from www.openstreetmap.org. The data is made available under ODbL."}, "elements": [{"type": "node", "id": 3721569312, "lat": 47.3667175, "lon": 8.5307876}, {"type": "node", "id": 3721569314, "lat": 47.366754, "lon": 8.5307365}, {"type": "node", "id": 3721569315, "lat": 47.3667549, "lon": 8.5305976}, {"type": "node", "id": 3721569316, "lat": 47.3667646, "lon": 8.5308609}, {"type": "node", "id": 3721569317, "lat": 47.366771, "lon": 8.5305762}, {"type": "node", "id": 3721569319, "lat": 47.3668011, "lon": 8.5308098}, {"type": "node", "id": 3721569322, "lat": 47.3668482, "lon": 8.5307516}, {"type": "node", "id": 3721569326, "lat": 47.3668644, "lon": 8.5307303}, {"type": "way", "id": 368305301, "nodes": [3721569314, 3721569319, 3721569316, 3721569312, 3721569314], "tags": {"addr:city": "Z\u00fcrich", "addr:country": "CH", "addr:housenumber": "14", "addr:postcode": "8002", "addr:street": "Parkring", "building": "yes"}}, {"type": "way", "id": 368305309, "nodes": [3721569326, 3721569317, 3721569315, 3721569322, 3721569326], "tags": {"addr:housenumber": "64c", "addr:street": "Parkring", "building": "yes"}}]}