{"version": 0.6, "generator": "Overpass API 0.7.60.6 e2dc3e5b", "osm3s": {"timestamp_osm_base": "2023-06-29T11:01:23Z", "copyright": "The data included in this document is from www.openstreetmap.org. The data is made available under ODbL."}, "elements": [{"type": "node", "id": 768439915, "lat": 47.3760403, "lon": 8.5281086}, {"type": "node", "id": 768439918, "lat": 47.3758848, "lon": 8.5283805}, {"type": "node", "id": 768439921, "lat": 47.3757832, "lon": 8.5282538}, {"type": "node", "id": 768439923, "lat": 47.3759388, "lon": 8.5279819}, {"type": "node", "id": 914703191, "lat": 47.3759816, "lon": 8.5280354, "tags": {"addr:city": "Z\u00fcrich", "addr:country": "CH", "addr:housenumber": "112", "addr:postcode": "8004", "addr:street": "Ankerstrasse"}}, {"type": "way", "id": 61637182, "nodes": [768439915, 768439918, 768439921, 768439923, 914703191, 768439915], "tags": {"building": "yes"}}]}