{"version": 0.6, "generator": "Overpass API 0.7.60.6 e2dc3e5b", "osm3s": {"timestamp_osm_base": "2023-06-29T15:02:50Z", "copyright": "The data included in this document is from www.openstreetmap.org. The data is made available under ODbL."}, "elements": [{"type": "node", "id": 358160014, "lat": 47.3740425, "lon": 8.5331103}, {"type": "node", "id": 358160017, "lat": 47.373875, "lon": 8.5332578}, {"type": "node", "id": 358160019, "lat": 47.3742164, "lon": 8.5335913}, {"type": "node", "id": 358160021, "lat": 47.3743134, "lon": 8.5333749}, {"type": "node", "id": 3349675716, "lat": 47.3739489, "lon": 8.5330928}, {"type": "node", "id": 3349675721, "lat": 47.3740195, "lon": 8.5331618}, {"type": "way", "id": 31969344, "nodes": [358160014, 3349675721, 3349675716, 358160017, 358160019, 358160021, 358160014], "tags": {"addr:city": "Z\u00fcrich", "addr:country": "CH", "addr:housenumber": "9", "addr:postcode": "8001", "addr:street": "Gessnerallee", "building": "yes", "source": "Stadt Z\u00fcrich Open Government Data; Geomatik + Vermessung; Tiefbau- und Entsorgungsdepartement"}}]}