{"version": 0.6, "generator": "Overpass API 0.7.60.6 e2dc3e5b", "osm3s": {"timestamp_osm_base": "2023-06-29T14:59:46Z", "copyright": "The data included in this document is from www.openstreetmap.org. The data is made available under ODbL."}, "elements": [{"type": "node", "id": 318213430, "lat": 47.3765402, "lon": 8.5296167}, {"type": "node", "id": 318213432, "lat": 47.3764325, "lon": 8.5294462}, {"type": "node", "id": 318213435, "lat": 47.3768202, "lon": 8.5288589}, {"type": "node", "id": 318213437, "lat": 47.3771271, "lon": 8.5291913}, {"type": "node", "id": 318213439, "lat": 47.3770368, "lon": 8.5293833}, {"type": "node", "id": 318213440, "lat": 47.3768372, "lon": 8.5291675}, {"type": "node", "id": 843156224, "lat": 47.3764845, "lon": 8.5295308, "tags": {"addr:city": "Z\u00fcrich", "addr:housenumber": "60", "addr:postcode": "8004", "addr:street": "Zeughausstrasse"}}, {"type": "node", "id": 936942720, "lat": 47.3770875, "lon": 8.529282, "tags": {"addr:city": "Z\u00fcrich", "addr:country": "CH", "addr:housenumber": "16", "addr:postcode": "8004", "addr:street": "Kanonengasse"}}, {"type": "way", "id": 28943784, "nodes": [318213430, 843156224, 318213432, 318213435, 318213437, 936942720, 318213439, 318213440, 318213430], "tags": {"addr:city": "Z\u00fcrich", "addr:country": "CH", "addr:postcode": "8004", "building": "yes", "name": "Zeughaus 5"}}]}