{"version": 0.6, "generator": "Overpass API 0.7.60.6 e2dc3e5b", "osm3s": {"timestamp_osm_base": "2023-06-29T15:06:56Z", "copyright": "The data included in this document is from www.openstreetmap.org. The data is made available under ODbL."}, "elements": [{"type": "node", "id": 937801722, "lat": 47.3733032, "lon": 8.5378475}, {"type": "node", "id": 937801753, "lat": 47.3733126, "lon": 8.5381166}, {"type": "node", "id": 937801756, "lat": 47.3731989, "lon": 8.5381203}, {"type": "node", "id": 937801771, "lat": 47.3731775, "lon": 8.5378515}, {"type": "node", "id": 3251868075, "lat": 47.3731834, "lon": 8.5380984}, {"type": "node", "id": 3334716994, "lat": 47.3731813, "lon": 8.5379817, "tags": {"addr:city": "Z\u00fcrich", "addr:country": "CH", "addr:housenumber": "2", "addr:postcode": "8001", "addr:street": "F\u00fcsslistrasse"}}, {"type": "node", "id": 3334716996, "lat": 47.3732555, "lon": 8.5381189, "tags": {"addr:city": "Z\u00fcrich", "addr:country": "CH", "addr:housenumber": "61", "addr:postcode": "8001", "addr:street": "Bahnhofstrasse"}}, {"type": "way", "id": 80359850, "nodes": [937801771, 3334716994, 3251868075, 937801756, 3334716996, 937801753, 937801722, 937801771], "tags": {"addr:city": "Z\u00fcrich", "addr:country": "CH", "addr:postcode": "8001", "building": "retail", "building:levels": "5", "roof:shape": "quadruple_saltbox", "source": "Stadt Z\u00fcrich Open Government Data; Geomatik + Vermessung; Tiefbau- und Entsorgungsdepartement"}}]}