{"version": 0.6, "generator": "Overpass API 0.7.60.6 e2dc3e5b", "osm3s": {"timestamp_osm_base": "2023-06-29T11:00:17Z", "copyright": "The data included in this document is from www.openstreetmap.org. The data is made available under ODbL."}, "elements": [{"type": "node", "id": 357214225, "lat": 47.3715501, "lon": 8.5273479}, {"type": "node", "id": 357214227, "lat": 47.3714573, "lon": 8.527514}, {"type": "node", "id": 2261078307, "lat": 47.3715722, "lon": 8.5273747}, {"type": "node", "id": 2261078313, "lat": 47.3716264, "lon": 8.5277173}, {"type": "node", "id": 2261078322, "lat": 47.3717184, "lon": 8.5275528}, {"type": "node", "id": 7626654055, "lat": 47.3715481, "lon": 8.5273516}, {"type": "node", "id": 7626654056, "lat": 47.3716255, "lon": 8.527719}, {"type": "way", "id": 31896245, "nodes": [2261078322, 2261078307, 357214225, 7626654055, 357214227, 7626654056, 2261078313, 2261078322], "tags": {"addr:city": "Z\u00fcrich", "addr:country": "CH", "addr:housenumber": "30", "addr:postcode": "8004", "addr:street": "Morgartenstrasse", "building": "commercial"}}]}