{"version": 0.6, "generator": "Overpass API 0.7.60.6 e2dc3e5b", "osm3s": {"timestamp_osm_base": "2023-06-29T15:06:56Z", "copyright": "The data included in this document is from www.openstreetmap.org. The data is made available under ODbL."}, "elements": [{"type": "node", "id": 387219695, "lat": 47.3696427, "lon": 8.5441879}, {"type": "node", "id": 633640088, "lat": 47.3696938, "lon": 8.5443477, "tags": {"addr:city": "Z\u00fcrich", "addr:country": "CH", "addr:housenumber": "6", "addr:postcode": "8001", "addr:street": "Grossm\u00fcnsterplatz"}}, {"type": "node", "id": 955271623, "lat": 47.3695103, "lon": 8.5442269}, {"type": "node", "id": 955271668, "lat": 47.3696662, "lon": 8.5444041}, {"type": "node", "id": 955271673, "lat": 47.3697201, "lon": 8.5442982}, {"type": "node", "id": 1970612939, "lat": 47.3695847, "lon": 8.5443263}, {"type": "node", "id": 1970612940, "lat": 47.3695868, "lon": 8.5441351}, {"type": "node", "id": 2862727037, "lat": 47.3695547, "lon": 8.544285, "tags": {"addr:city": "Z\u00fcrich", "addr:country": "CH", "addr:housenumber": "6", "addr:postcode": "8001", "addr:street": "Kirchgasse"}}, {"type": "node", "id": 2862728732, "lat": 47.3695994, "lon": 8.5441553}, {"type": "node", "id": 2862728736, "lat": 47.3696114, "lon": 8.5441392}, {"type": "way", "id": 81993597, "nodes": [955271673, 387219695, 2862728736, 2862728732, 1970612940, 955271623, 2862727037, 1970612939, 955271668, 633640088, 955271673], "tags": {"addr:city": "Z\u00fcrich", "addr:country": "CH", "addr:postcode": "8001", "building": "yes", "source": "Stadt Z\u00fcrich Open Government Data; Geomatik + Vermessung; Tiefbau- und Entsorgungsdepartement"}}]}