{"version": 0.6, "generator": "Overpass API 0.7.60.6 e2dc3e5b", "osm3s": {"timestamp_osm_base": "2023-06-29T12:13:45Z", "copyright": "The data included in this document is from www.openstreetmap.org. The data is made available under ODbL."}, "elements": [{"type": "node", "id": 3721569321, "lat": 47.3668449, "lon": 8.5306297}, {"type": "node", "id": 3721569323, "lat": 47.3668567, "lon": 8.5306492}, {"type": "node", "id": 3721569327, "lat": 47.3668741, "lon": 8.5306263}, {"type": "node", "id": 3721569328, "lat": 47.3669032, "lon": 8.5306744}, {"type": "node", "id": 3721569331, "lat": 47.3669359, "lon": 8.5305097}, {"type": "node", "id": 3721569332, "lat": 47.3669606, "lon": 8.5305507}, {"type": "node", "id": 3721569333, "lat": 47.3669792, "lon": 8.5305262}, {"type": "node", "id": 3721569335, "lat": 47.3669954, "lon": 8.5305529}, {"type": "way", "id": 368305308, "nodes": [3721569335, 3721569328, 3721569327, 3721569323, 3721569321, 3721569331, 3721569332, 3721569333, 3721569335], "tags": {"addr:city": "Z\u00fcrich", "addr:country": "CH", "addr:housenumber": "64b", "addr:postcode": "8002", "addr:street": "Parkring", "building": "yes"}}]}