{"version": 0.6, "generator": "Overpass API 0.7.60.6 e2dc3e5b", "osm3s": {"timestamp_osm_base": "2023-06-29T12:11:40Z", "copyright": "The data included in this document is from www.openstreetmap.org. The data is made available under ODbL."}, "elements": [{"type": "node", "id": 955271604, "lat": 47.3690501, "lon": 8.5450214}, {"type": "node", "id": 955271619, "lat": 47.3690235, "lon": 8.545161}, {"type": "node", "id": 955271686, "lat": 47.3691236, "lon": 8.5449229}, {"type": "node", "id": 955271729, "lat": 47.3689755, "lon": 8.5448883}, {"type": "node", "id": 955271785, "lat": 47.369017, "lon": 8.5447349}, {"type": "node", "id": 955271893, "lat": 47.3692531, "lon": 8.5452372}, {"type": "node", "id": 1031582831, "lat": 47.369148, "lon": 8.5453572}, {"type": "node", "id": 1970612896, "lat": 47.3689871, "lon": 8.5451045}, {"type": "node", "id": 1970612898, "lat": 47.3689905, "lon": 8.5448674}, {"type": "node", "id": 1970612901, "lat": 47.3689619, "lon": 8.5448116}, {"type": "node", "id": 2860399036, "lat": 47.3690859, "lon": 8.5449731, "tags": {"addr:housenumber": "19", "addr:street": "Oberdorfstrasse"}}, {"type": "node", "id": 2860399039, "lat": 47.3690403, "lon": 8.5447766, "tags": {"addr:housenumber": "6", "addr:street": "Geigergasse"}}, {"type": "node", "id": 2860399045, "lat": 47.3689066, "lon": 8.5449818}, {"type": "node", "id": 2860399049, "lat": 47.3689663, "lon": 8.5449005}, {"type": "node", "id": 2860399050, "lat": 47.3690082, "lon": 8.5449551}, {"type": "node", "id": 2862727058, "lat": 47.3690402, "lon": 8.5451873}, {"type": "node", "id": 2862727063, "lat": 47.3690724, "lon": 8.545238}, {"type": "node", "id": 2862727069, "lat": 47.369125, "lon": 8.5450104}, {"type": "node", "id": 2862727071, "lat": 47.3691363, "lon": 8.5453388}, {"type": "way", "id": 81993540, "nodes": [955271604, 2860399036, 955271686, 2860399039, 955271785, 1970612901, 1970612898, 955271729, 2860399050, 955271604], "tags": {"addr:city": "Z\u00fcrich", "addr:country": "CH", "addr:postcode": "8001", "building": "yes", "name": "zum Steinbock", "source": "Stadt Z\u00fcrich Open Government Data; Geomatik + Vermessung; Tiefbau- und Entsorgungsdepartement"}}, {"type": "way", "id": 81993557, "nodes": [955271729, 2860399049, 2860399045, 1970612896, 955271604, 2860399050, 955271729], "tags": {"addr:city": "Z\u00fcrich", "addr:country": "CH", "addr:housenumber": "17", "addr:postcode": "8001", "addr:street": "Oberdorfstrasse", "building": "yes", "name": "zum Bracken", "source": "Stadt Z\u00fcrich Open Government Data; Geomatik + Vermessung; Tiefbau- und Entsorgungsdepartement"}}, {"type": "way", "id": 81993561, "nodes": [955271619, 2862727069, 955271893, 1031582831, 2862727071, 2862727063, 2862727058, 955271619], "tags": {"addr:city": "Z\u00fcrich", "addr:country": "CH", "addr:housenumber": "2", "addr:postcode": "8001", "addr:street": "Trittligasse", "building": "apartments", "building:levels": "4", "name": "Zum Sitkust", "roof:levels": "1", "source": "Stadt Z\u00fcrich Open Government Data;Geomatik + Vermessung;Tiefbau- und Entsorgungsdepartement"}}]}