{"version": 0.6, "generator": "Overpass API 0.7.60.6 e2dc3e5b", "osm3s": {"timestamp_osm_base": "2023-06-29T11:07:30Z", "copyright": "The data included in this document is from www.openstreetmap.org. The data is made available under ODbL."}, "elements": [{"type": "node", "id": 921512112, "lat": 47.3712185, "lon": 8.5350649}, {"type": "node", "id": 921512206, "lat": 47.3711288, "lon": 8.5348988}, {"type": "node", "id": 3336763920, "lat": 47.3712046, "lon": 8.5348112}, {"type": "node", "id": 3336763921, "lat": 47.3712764, "lon": 8.5349994}, {"type": "node", "id": 3336763924, "lat": 47.3712977, "lon": 8.5347257}, {"type": "node", "id": 3336763927, "lat": 47.3713809, "lon": 8.5351639}, {"type": "node", "id": 3336763928, "lat": 47.3714841, "lon": 8.5350165}, {"type": "way", "id": 326969825, "nodes": [921512206, 3336763920, 3336763924, 3336763928, 3336763927, 3336763921, 921512112, 921512206], "tags": {"addr:city": "Z\u00fcrich", "addr:country": "CH", "addr:housenumber": "70", "addr:postcode": "8001", "addr:street": "Talstrasse", "building": "commercial", "building:levels": "6", "source": "Stadt Z\u00fcrich Open Government Data; Geomatik + Vermessung; Tiefbau- und Entsorgungsdepartement"}}]}