{"version": 0.6, "generator": "Overpass API 0.7.60.6 e2dc3e5b", "osm3s": {"timestamp_osm_base": "2023-06-29T11:06:28Z", "copyright": "The data included in this document is from www.openstreetmap.org. The data is made available under ODbL."}, "elements": [{"type": "node", "id": 850608226, "lat": 47.3705397, "lon": 8.527384}, {"type": "node", "id": 3163050261, "lat": 47.370517, "lon": 8.5275351, "tags": {"entrance": "yes"}}, {"type": "node", "id": 3457057492, "lat": 47.370481, "lon": 8.5274926}, {"type": "node", "id": 3457057797, "lat": 47.3705532, "lon": 8.5275778}, {"type": "node", "id": 3457057798, "lat": 47.3705597, "lon": 8.5273776}, {"type": "node", "id": 3457057801, "lat": 47.3706218, "lon": 8.5274509}, {"type": "node", "id": 7626654013, "lat": 47.3705423, "lon": 8.5273792}, {"type": "way", "id": 338596615, "nodes": [7626654013, 850608226, 3457057492, 3163050261, 3457057797, 3457057801, 3457057798, 7626654013], "tags": {"addr:city": "Z\u00fcrich", "addr:country": "CH", "addr:housenumber": "64", "addr:postcode": "8004", "addr:street": "Hallwylstrasse", "building": "apartments"}}]}