{"version": 0.6, "generator": "Overpass API 0.7.60.6 e2dc3e5b", "osm3s": {"timestamp_osm_base": "2023-06-29T14:59:46Z", "copyright": "The data included in this document is from www.openstreetmap.org. The data is made available under ODbL."}, "elements": [{"type": "node", "id": 2917019368, "lat": 47.3734753, "lon": 8.5417546}, {"type": "node", "id": 2917019371, "lat": 47.3735014, "lon": 8.5415562}, {"type": "node", "id": 2917019373, "lat": 47.373535, "lon": 8.5417704}, {"type": "node", "id": 2917019374, "lat": 47.3735574, "lon": 8.5415863}, {"type": "node", "id": 2917019375, "lat": 47.373559, "lon": 8.541567}, {"type": "way", "id": 288152476, "nodes": [2917019374, 2917019375, 2917019371, 2917019368, 2917019373, 2917019374], "tags": {"addr:city": "Z\u00fcrich", "addr:country": "CH", "addr:housenumber": "43", "addr:postcode": "8001", "addr:street": "Schipfe", "building": "yes", "source": "Stadt Z\u00fcrich Open Government Data; Geomatik + Vermessung; Tiefbau- und Entsorgungsdepartement"}}]}