{"version": 0.6, "generator": "Overpass API 0.7.60.6 e2dc3e5b", "osm3s": {"timestamp_osm_base": "2023-06-29T12:14:45Z", "copyright": "The data included in this document is from www.openstreetmap.org. The data is made available under ODbL."}, "elements": [{"type": "node", "id": 1031582166, "lat": 47.3681424, "lon": 8.5447276}, {"type": "node", "id": 1031582663, "lat": 47.3682237, "lon": 8.5449482}, {"type": "node", "id": 1031583122, "lat": 47.368279, "lon": 8.5445805}, {"type": "node", "id": 1031583248, "lat": 47.3683805, "lon": 8.5447802}, {"type": "node", "id": 2858438099, "lat": 47.3682065, "lon": 8.5446561, "tags": {"addr:city": "Z\u00fcrich", "addr:country": "CH", "addr:housenumber": "6", "addr:postcode": "8001", "addr:street": "Limmatquai"}}, {"type": "node", "id": 2858439301, "lat": 47.3683291, "lon": 8.5446803, "tags": {"addr:city": "Z\u00fcrich", "addr:country": "CH", "addr:housenumber": "7", "addr:postcode": "8001", "addr:street": "Hechtplatz"}}, {"type": "node", "id": 2858439322, "lat": 47.3681415, "lon": 8.5447521}, {"type": "node", "id": 2858439323, "lat": 47.3681807, "lon": 8.5448631}, {"type": "node", "id": 2858439324, "lat": 47.3681916, "lon": 8.5448508}, {"type": "way", "id": 88877125, "nodes": [1031583122, 2858438099, 1031582166, 2858439322, 2858439324, 2858439323, 1031582663, 1031583248, 2858439301, 1031583122], "tags": {"building": "retail", "building:levels": "1", "source": "Stadt Z\u00fcrich Open Government Data; Geomatik + Vermessung; Tiefbau- und Entsorgungsdepartement"}}]}