{"version": 0.6, "generator": "Overpass API 0.7.60.6 e2dc3e5b", "osm3s": {"timestamp_osm_base": "2023-06-29T10:58:16Z", "copyright": "The data included in this document is from www.openstreetmap.org. The data is made available under ODbL."}, "elements": [{"type": "node", "id": 471592602, "lat": 47.3730379, "lon": 8.5434949}, {"type": "node", "id": 472267730, "lat": 47.3730388, "lon": 8.5433448}, {"type": "node", "id": 638984407, "lat": 47.3731596, "lon": 8.5433327}, {"type": "node", "id": 638984410, "lat": 47.3731777, "lon": 8.5436711}, {"type": "node", "id": 2892837830, "lat": 47.3730395, "lon": 8.5433047}, {"type": "node", "id": 2892837837, "lat": 47.3730469, "lon": 8.543691}, {"type": "node", "id": 2892837842, "lat": 47.3731576, "lon": 8.5432947}, {"type": "way", "id": 50288277, "nodes": [2892837842, 2892837830, 472267730, 471592602, 2892837837, 638984410, 638984407, 2892837842], "tags": {"addr:city": "Z\u00fcrich", "addr:country": "CH", "addr:housenumber": "10", "addr:postcode": "8001", "addr:street": "Rosengasse", "building": "yes", "source": "Stadt Z\u00fcrich Open Government Data; Geomatik + Vermessung; Tiefbau- und Entsorgungsdepartement"}}]}