{"version": 0.6, "generator": "Overpass API 0.7.60.6 e2dc3e5b", "osm3s": {"timestamp_osm_base": "2023-06-29T15:01:48Z", "copyright": "The data included in this document is from www.openstreetmap.org. The data is made available under ODbL."}, "elements": [{"type": "node", "id": 1041911590, "lat": 47.3711731, "lon": 8.5392612}, {"type": "node", "id": 1041911804, "lat": 47.3713004, "lon": 8.5392115}, {"type": "node", "id": 1041912089, "lat": 47.3711095, "lon": 8.5389141}, {"type": "node", "id": 1041912184, "lat": 47.371266, "lon": 8.5388582}, {"type": "node", "id": 1041912917, "lat": 47.3712875, "lon": 8.5391278}, {"type": "node", "id": 2925699971, "lat": 47.3711576, "lon": 8.53917, "tags": {"addr:city": "Z\u00fcrich", "addr:country": "CH", "addr:housenumber": "12", "addr:postcode": "8001", "addr:street": "St. Peterstrasse"}}, {"type": "node", "id": 2925699972, "lat": 47.3711891, "lon": 8.5388856, "tags": {"addr:city": "Z\u00fcrich", "addr:country": "CH", "addr:housenumber": "36", "addr:postcode": "8001", "addr:street": "Bahnhofstrasse"}}, {"type": "node", "id": 2925699973, "lat": 47.371217, "lon": 8.5392441}, {"type": "node", "id": 2925699974, "lat": 47.3712773, "lon": 8.5390644}, {"type": "node", "id": 2925699975, "lat": 47.3713006, "lon": 8.5390544}, {"type": "way", "id": 89896441, "nodes": [1041912184, 2925699975, 2925699974, 1041912917, 1041911804, 2925699973, 1041911590, 2925699971, 1041912089, 2925699972, 1041912184], "tags": {"addr:city": "Z\u00fcrich", "addr:country": "CH", "addr:postcode": "8001", "building": "apartments", "building:levels": "4", "owner": "Bank Julius B\u00e4r", "roof:levels": "1", "source": "Stadt Z\u00fcrich Open Government Data; Geomatik + Vermessung; Tiefbau- und Entsorgungsdepartement"}}]}