{"version": 0.6, "generator": "Overpass API 0.7.60.6 e2dc3e5b", "osm3s": {"timestamp_osm_base": "2023-06-29T13:35:17Z", "copyright": "The data included in this document is from www.openstreetmap.org. The data is made available under ODbL."}, "elements": [{"type": "node", "id": 361475353, "lat": 47.3676569, "lon": 8.5393491}, {"type": "node", "id": 361475354, "lat": 47.3673703, "lon": 8.539614}, {"type": "node", "id": 361475355, "lat": 47.3674333, "lon": 8.5399679}, {"type": "node", "id": 361475356, "lat": 47.36781, "lon": 8.5398277}, {"type": "node", "id": 1042029178, "lat": 47.3676951, "lon": 8.539353}, {"type": "node", "id": 1042029332, "lat": 47.3677165, "lon": 8.539375}, {"type": "node", "id": 1042890360, "lat": 47.3676749, "lon": 8.5393498}, {"type": "node", "id": 2201204150, "lat": 47.3677621, "lon": 8.5396025, "tags": {"addr:city": "Z\u00fcrich", "addr:country": "CH", "addr:housenumber": "21", "addr:postcode": "8001", "addr:street": "B\u00f6rsenstrasse"}}, {"type": "node", "id": 2201204153, "lat": 47.3676217, "lon": 8.539897, "tags": {"addr:city": "Z\u00fcrich", "addr:country": "CH", "addr:housenumber": "3", "addr:postcode": "8001", "addr:street": "Bahnhofstrasse"}}, {"type": "way", "id": 32233957, "nodes": [361475353, 361475354, 361475355, 2201204153, 361475356, 2201204150, 1042029332, 1042029178, 1042890360, 361475353], "tags": {"addr:city": "Z\u00fcrich", "addr:country": "CH", "addr:postcode": "8001", "building": "commercial", "building:levels": "5", "description": "Erste Z\u00fcrcher B\u00f6rse; 1929-1932 umgebaut f\u00fcr Basler Handelsbank; sp\u00e4ter Sparkasse der Stadt Z\u00fcrich; Schutzobjekt von kommunaler Bedeutung, seit 2017-11-15", "heritage": "8", "name": "Baugarten", "note": "Mezzaningeschoss nicht mitgez\u00e4hlt; Aufstockung um 2 Vollgeschosse anstelle Attikageschoss geplant", "owner": "Genossenschaft zum Baugarten", "source": "Stadt Z\u00fcrich Open Government Data; Geomatik + Vermessung; Tiefbau- und Entsorgungsdepartement", "start_date": "1877..1880"}}]}