{"version": 0.6, "generator": "Overpass API 0.7.60.6 e2dc3e5b", "osm3s": {"timestamp_osm_base": "2023-06-29T13:47:35Z", "copyright": "The data included in this document is from www.openstreetmap.org. The data is made available under ODbL."}, "elements": [{"type": "node", "id": 1622497897, "lat": 47.3637914, "lon": 8.5297371}, {"type": "node", "id": 1622497901, "lat": 47.3638904, "lon": 8.5302148}, {"type": "node", "id": 1622497914, "lat": 47.3640048, "lon": 8.5297756}, {"type": "node", "id": 1622497920, "lat": 47.3640528, "lon": 8.5300073}, {"type": "node", "id": 1622497922, "lat": 47.3640579, "lon": 8.5296167}, {"type": "node", "id": 1622497926, "lat": 47.3640835, "lon": 8.52974}, {"type": "node", "id": 1622497932, "lat": 47.3641309, "lon": 8.529972}, {"type": "node", "id": 1622497935, "lat": 47.3641563, "lon": 8.5300946}, {"type": "node", "id": 8343608393, "lat": 47.3638626, "lon": 8.5301203}, {"type": "node", "id": 8343608394, "lat": 47.3638041, "lon": 8.529838}, {"type": "node", "id": 8343608395, "lat": 47.3638701, "lon": 8.5301169}, {"type": "node", "id": 8343608396, "lat": 47.3638116, "lon": 8.5298347}, {"type": "way", "id": 149239542, "nodes": [1622497926, 1622497922, 1622497897, 8343608396, 8343608394, 8343608393, 8343608395, 1622497901, 1622497935, 1622497932, 1622497920, 1622497914, 1622497926], "tags": {"addr:city": "Z\u00fcrich", "addr:country": "CH", "addr:housenumber": "25", "addr:postcode": "8002", "addr:street": "Bederstrasse", "amenity": "community_centre", "building": "yes", "community_centre": "parish_hall", "community_centre:for": "religious", "denomination": "reformed", "description": "Reformierte Kirche Enge", "name": "Kirchgemeindehaus Enge", "religion": "christian"}}]}