{"version": 0.6, "generator": "Overpass API 0.7.60.6 e2dc3e5b", "osm3s": {"timestamp_osm_base": "2023-06-29T12:13:45Z", "copyright": "The data included in this document is from www.openstreetmap.org. The data is made available under ODbL."}, "elements": [{"type": "node", "id": 916462860, "lat": 47.3693854, "lon": 8.5450225}, {"type": "node", "id": 916462915, "lat": 47.3694879, "lon": 8.5449728}, {"type": "node", "id": 916462917, "lat": 47.3693988, "lon": 8.5450525}, {"type": "node", "id": 916462921, "lat": 47.3692851, "lon": 8.5447985}, {"type": "node", "id": 955271649, "lat": 47.3693869, "lon": 8.5446923}, {"type": "node", "id": 2862727095, "lat": 47.3693495, "lon": 8.5449295}, {"type": "way", "id": 81993589, "nodes": [916462921, 955271649, 916462915, 916462917, 916462860, 2862727095, 916462921], "tags": {"addr:city": "Z\u00fcrich", "addr:country": "CH", "addr:housenumber": "32", "addr:postcode": "8001", "addr:street": "Oberdorfstrasse", "building": "yes", "source": "Stadt Z\u00fcrich Open Government Data; Geomatik + Vermessung; Tiefbau- und Entsorgungsdepartement"}}]}