{"version": 0.6, "generator": "Overpass API 0.7.60.6 e2dc3e5b", "osm3s": {"timestamp_osm_base": "2023-06-29T10:58:16Z", "copyright": "The data included in this document is from www.openstreetmap.org. The data is made available under ODbL."}, "elements": [{"type": "node", "id": 3340359664, "lat": 47.3707082, "lon": 8.5370691}, {"type": "node", "id": 3340359672, "lat": 47.3708421, "lon": 8.5373621}, {"type": "node", "id": 3340359676, "lat": 47.3708864, "lon": 8.5371055}, {"type": "node", "id": 3340359677, "lat": 47.3708892, "lon": 8.5368217}, {"type": "node", "id": 3340359680, "lat": 47.3709548, "lon": 8.5372504}, {"type": "node", "id": 3340359682, "lat": 47.3709839, "lon": 8.5369707}, {"type": "node", "id": 9706186019, "lat": 47.3708262, "lon": 8.5373274}, {"type": "node", "id": 9706186021, "lat": 47.370938, "lon": 8.5372148}, {"type": "way", "id": 327298867, "nodes": [3340359672, 9706186019, 3340359664, 3340359677, 3340359682, 3340359676, 9706186021, 3340359680, 3340359672], "tags": {"addr:city": "Z\u00fcrich", "addr:country": "CH", "addr:housenumber": "24", "addr:postcode": "8001", "addr:street": "Talacker", "building": "office", "building:levels": "7", "source": "Stadt Z\u00fcrich Open Government Data; Geomatik + Vermessung; Tiefbau- und Entsorgungsdepartement"}}]}