{"version": 0.6, "generator": "Overpass API 0.7.60.6 e2dc3e5b", "osm3s": {"timestamp_osm_base": "2023-06-29T15:06:56Z", "copyright": "The data included in this document is from www.openstreetmap.org. The data is made available under ODbL."}, "elements": [{"type": "node", "id": 937593862, "lat": 47.374164, "lon": 8.5356282}, {"type": "node", "id": 937593890, "lat": 47.3740938, "lon": 8.5357832}, {"type": "node", "id": 937593899, "lat": 47.374013, "lon": 8.5357037}, {"type": "node", "id": 3330617859, "lat": 47.3740833, "lon": 8.5355488}, {"type": "node", "id": 3330617867, "lat": 47.3741527, "lon": 8.5358413}, {"type": "node", "id": 3330617868, "lat": 47.3741659, "lon": 8.5358122}, {"type": "node", "id": 3330617870, "lat": 47.3741897, "lon": 8.5358357}, {"type": "node", "id": 3330617874, "lat": 47.3742467, "lon": 8.5357098}, {"type": "way", "id": 326422845, "nodes": [937593899, 937593890, 937593862, 3330617859, 937593899], "tags": {"addr:city": "Z\u00fcrich", "addr:country": "CH", "addr:housenumber": "22", "addr:postcode": "8001", "addr:street": "L\u00f6wenstrasse", "building": "commercial", "owner": "PSP Swiss Property", "source": "Stadt Z\u00fcrich Open Government Data; Geomatik + Vermessung; Tiefbau- und Entsorgungsdepartement", "start_date": "1964"}}, {"type": "way", "id": 326422847, "nodes": [937593890, 3330617867, 3330617868, 3330617870, 3330617874, 937593862, 937593890], "tags": {"addr:city": "Z\u00fcrich", "addr:country": "CH", "addr:housenumber": "24", "addr:postcode": "8001", "addr:street": "L\u00f6wenstrasse", "building": "apartments", "source": "Stadt Z\u00fcrich Open Government Data; Geomatik + Vermessung; Tiefbau- und Entsorgungsdepartement"}}]}