{"version": 0.6, "generator": "Overpass API 0.7.60.6 e2dc3e5b", "osm3s": {"timestamp_osm_base": "2023-06-29T13:49:36Z", "copyright": "The data included in this document is from www.openstreetmap.org. The data is made available under ODbL."}, "elements": [{"type": "node", "id": 850608030, "lat": 47.3700013, "lon": 8.5288907}, {"type": "node", "id": 850608075, "lat": 47.3699286, "lon": 8.5287223}, {"type": "node", "id": 3460480335, "lat": 47.3700793, "lon": 8.5285839}, {"type": "node", "id": 3460480339, "lat": 47.3701512, "lon": 8.5287519}, {"type": "node", "id": 3460480354, "lat": 47.3703818, "lon": 8.5282995}, {"type": "node", "id": 3460480361, "lat": 47.3704544, "lon": 8.528469}, {"type": "node", "id": 7629924197, "lat": 47.3700787, "lon": 8.5285824}, {"type": "way", "id": 338896050, "nodes": [3460480339, 850608030, 850608075, 3460480335, 3460480339], "tags": {"addr:city": "Z\u00fcrich", "addr:country": "CH", "addr:housenumber": "3", "addr:postcode": "8004", "addr:street": "Weberstrasse", "building": "commercial", "building:levels": "4", "roof:levels": "2"}}, {"type": "way", "id": 338896051, "nodes": [3460480361, 3460480339, 3460480335, 7629924197, 3460480354, 3460480361], "tags": {"addr:city": "Z\u00fcrich", "addr:country": "CH", "addr:housenumber": "5", "addr:postcode": "8004", "addr:street": "Weberstrasse", "building": "commercial"}}]}