{"version": 0.6, "generator": "Overpass API 0.7.60.6 e2dc3e5b", "osm3s": {"timestamp_osm_base": "2023-06-29T15:02:50Z", "copyright": "The data included in this document is from www.openstreetmap.org. The data is made available under ODbL."}, "elements": [{"type": "node", "id": 1388651114, "lat": 47.3672724, "lon": 8.5337866}, {"type": "node", "id": 1388651127, "lat": 47.3673469, "lon": 8.5335225}, {"type": "node", "id": 1388651131, "lat": 47.3674294, "lon": 8.5334592}, {"type": "node", "id": 1388651147, "lat": 47.3674871, "lon": 8.5336282}, {"type": "node", "id": 3728343546, "lat": 47.3671693, "lon": 8.5336478}, {"type": "node", "id": 3728343553, "lat": 47.3672928, "lon": 8.53345}, {"type": "way", "id": 124900884, "nodes": [3728343546, 1388651114, 1388651147, 1388651131, 1388651127, 3728343553, 3728343546], "tags": {"addr:city": "Z\u00fcrich", "addr:country": "CH", "addr:housenumber": "58", "addr:postcode": "8002", "addr:street": "Bleicherweg", "building": "commercial", "owner": "Noldin Immobilien", "start_date": "1972"}}]}