{"version": 0.6, "generator": "Overpass API 0.7.60.6 e2dc3e5b", "osm3s": {"timestamp_osm_base": "2023-06-29T15:07:56Z", "copyright": "The data included in this document is from www.openstreetmap.org. The data is made available under ODbL."}, "elements": [{"type": "node", "id": 358130559, "lat": 47.3687971, "lon": 8.5397827}, {"type": "node", "id": 358130638, "lat": 47.3686905, "lon": 8.540031}, {"type": "node", "id": 2938530161, "lat": 47.3686351, "lon": 8.5398445}, {"type": "node", "id": 2938530162, "lat": 47.3686688, "lon": 8.5400392}, {"type": "node", "id": 2938530164, "lat": 47.368713, "lon": 8.54019}, {"type": "node", "id": 2938530174, "lat": 47.3688481, "lon": 8.5401535}, {"type": "way", "id": 290296847, "nodes": [358130559, 2938530161, 2938530162, 358130638, 2938530164, 2938530174, 358130559], "tags": {"addr:city": "Z\u00fcrich", "addr:country": "CH", "addr:housenumber": "18", "addr:postcode": "8001", "addr:street": "Bahnhofstrasse", "building": "yes", "source": "Stadt Z\u00fcrich Open Government Data; Geomatik + Vermessung; Tiefbau- und Entsorgungsdepartement"}}]}