{"version": 0.6, "generator": "Overpass API 0.7.60.6 e2dc3e5b", "osm3s": {"timestamp_osm_base": "2023-06-29T12:48:33Z", "copyright": "The data included in this document is from www.openstreetmap.org. The data is made available under ODbL."}, "elements": [{"type": "node", "id": 1275793978, "lat": 47.3675352, "lon": 8.5370555}, {"type": "node", "id": 1275793979, "lat": 47.3677615, "lon": 8.5368902}, {"type": "node", "id": 1275793984, "lat": 47.3676216, "lon": 8.5367028}, {"type": "node", "id": 1275793986, "lat": 47.367807, "lon": 8.5366185}, {"type": "node", "id": 1275793997, "lat": 47.3677011, "lon": 8.5369276}, {"type": "node", "id": 1275794011, "lat": 47.3674557, "lon": 8.5368308}, {"type": "node", "id": 1275794014, "lat": 47.3676967, "lon": 8.5367006}, {"type": "node", "id": 3729839329, "lat": 47.3678532, "lon": 8.536584}, {"type": "node", "id": 3729839330, "lat": 47.367918, "lon": 8.5367735}, {"type": "way", "id": 112168945, "nodes": [1275793997, 1275793984, 1275794011, 1275793978, 1275793997], "tags": {"addr:city": "Z\u00fcrich", "addr:country": "CH", "addr:housenumber": "35", "addr:postcode": "8002", "addr:street": "Claridenstrasse", "building": "yes", "building:roof": "flat"}}, {"type": "way", "id": 369170303, "nodes": [1275793986, 1275794014, 1275793979, 3729839330, 3729839329, 1275793986], "tags": {"addr:city": "Z\u00fcrich", "addr:country": "CH", "addr:housenumber": "41", "addr:postcode": "8002", "addr:street": "Claridenstrasse", "building": "commercial", "building:roof": "flat", "owner": "Allianz Suisse"}}]}