{"version": 0.6, "generator": "Overpass API 0.7.60.6 e2dc3e5b", "osm3s": {"timestamp_osm_base": "2023-06-29T15:23:04Z", "copyright": "The data included in this document is from www.openstreetmap.org. The data is made available under ODbL."}, "elements": [{"type": "node", "id": 430599357, "lat": 47.3761707, "lon": 8.5424233}, {"type": "node", "id": 430600086, "lat": 47.3767777, "lon": 8.5419704}, {"type": "node", "id": 430600087, "lat": 47.3767732, "lon": 8.5423922}, {"type": "node", "id": 430600088, "lat": 47.3761697, "lon": 8.5423714}, {"type": "node", "id": 430600089, "lat": 47.3760273, "lon": 8.5423532}, {"type": "node", "id": 430600091, "lat": 47.3765564, "lon": 8.5419653}, {"type": "node", "id": 2958698644, "lat": 47.3760895, "lon": 8.5421184}, {"type": "node", "id": 2958698645, "lat": 47.3761634, "lon": 8.5421142}, {"type": "node", "id": 2958698648, "lat": 47.3761627, "lon": 8.5420864}, {"type": "way", "id": 37024114, "nodes": [430600086, 430600087, 430599357, 430600088, 430600089, 2958698644, 2958698645, 2958698648, 430600091, 430600086], "tags": {"addr:city": "Z\u00fcrich", "addr:country": "CH", "addr:housenumber": "1", "addr:postcode": "8001", "addr:street": "Bahnhofbr\u00fccke", "architect": "Karl Egender", "building": "commercial", "building:levels": "2", "name": "Globus Provisorium", "owner": "Stadt Z\u00fcrich, FD, Liegenschaftenverwaltung", "roof:levels": "0", "roof:shape": "flat", "source": "Stadt Z\u00fcrich Open Government Data; Geomatik + Vermessung; Tiefbau- und Entsorgungsdepartement", "start_date": "1960..1961"}}]}