{"version": 0.6, "generator": "Overpass API 0.7.60.6 e2dc3e5b", "osm3s": {"timestamp_osm_base": "2023-06-29T10:58:16Z", "copyright": "The data included in this document is from www.openstreetmap.org. The data is made available under ODbL."}, "elements": [{"type": "node", "id": 2944055026, "lat": 47.3747292, "lon": 8.5391251}, {"type": "node", "id": 2944055133, "lat": 47.3747674, "lon": 8.5389328}, {"type": "node", "id": 2944055136, "lat": 47.3748313, "lon": 8.5391744}, {"type": "node", "id": 2944055138, "lat": 47.3748754, "lon": 8.5389845}, {"type": "node", "id": 2944055141, "lat": 47.3749245, "lon": 8.5392237}, {"type": "node", "id": 2944055144, "lat": 47.3749707, "lon": 8.5390333}, {"type": "way", "id": 290914345, "nodes": [2944055138, 2944055133, 2944055026, 2944055136, 2944055138], "tags": {"addr:city": "Z\u00fcrich", "addr:country": "CH", "addr:housenumber": "76", "addr:postcode": "8001", "addr:street": "Bahnhofstrasse", "building": "apartments", "building:levels": "5", "roof:levels": "1", "source": "Stadt Z\u00fcrich Open Government Data; Geomatik + Vermessung; Tiefbau- und Entsorgungsdepartement"}}, {"type": "way", "id": 290914347, "nodes": [2944055144, 2944055138, 2944055136, 2944055141, 2944055144], "tags": {"addr:city": "Z\u00fcrich", "addr:country": "CH", "addr:housenumber": "78", "addr:postcode": "8001", "addr:street": "Bahnhofstrasse", "building": "commercial", "building:levels": "5", "owner": "Silberhof Immobilien", "roof:levels": "1", "source": "Stadt Z\u00fcrich Open Government Data; Geomatik + Vermessung; Tiefbau- und Entsorgungsdepartement", "start_date": "1971"}}]}