{"version": 0.6, "generator": "Overpass API 0.7.60.6 e2dc3e5b", "osm3s": {"timestamp_osm_base": "2023-06-29T15:02:50Z", "copyright": "The data included in this document is from www.openstreetmap.org. The data is made available under ODbL."}, "elements": [{"type": "node", "id": 663310708, "lat": 47.3760207, "lon": 8.529618, "tags": {"addr:city": "Z\u00fcrich", "addr:country": "CH", "addr:housenumber": "70", "addr:postcode": "8004", "addr:street": "Rotwandstrasse"}}, {"type": "node", "id": 850608026, "lat": 47.3760373, "lon": 8.5298586}, {"type": "node", "id": 850608190, "lat": 47.3760926, "lon": 8.529775}, {"type": "node", "id": 915410108, "lat": 47.3760659, "lon": 8.5298151, "tags": {"addr:city": "Z\u00fcrich", "addr:country": "CH", "addr:housenumber": "51", "addr:postcode": "8004", "addr:street": "Zeughausstrasse"}}, {"type": "node", "id": 3462185899, "lat": 47.375901, "lon": 8.529661}, {"type": "node", "id": 3462185902, "lat": 47.3759705, "lon": 8.5297613}, {"type": "node", "id": 3462185904, "lat": 47.3759781, "lon": 8.5295526}, {"type": "node", "id": 3462185906, "lat": 47.3760451, "lon": 8.5296519}, {"type": "node", "id": 3462185909, "lat": 47.376094, "lon": 8.5297269}, {"type": "way", "id": 71504821, "nodes": [3462185902, 850608026, 915410108, 850608190, 3462185909, 3462185906, 3462185902], "tags": {"building": "yes"}}, {"type": "way", "id": 339029341, "nodes": [3462185899, 3462185902, 3462185906, 663310708, 3462185904, 3462185899], "tags": {"building": "apartments"}}]}