{"version": 0.6, "generator": "Overpass API 0.7.60.6 e2dc3e5b", "osm3s": {"timestamp_osm_base": "2023-06-29T12:49:34Z", "copyright": "The data included in this document is from www.openstreetmap.org. The data is made available under ODbL."}, "elements": [{"type": "node", "id": 1215872709, "lat": 47.3658858, "lon": 8.5360736}, {"type": "node", "id": 1215872710, "lat": 47.3668103, "lon": 8.5360453}, {"type": "node", "id": 1215872711, "lat": 47.3661107, "lon": 8.5366861}, {"type": "node", "id": 1215872712, "lat": 47.3666084, "lon": 8.5354953}, {"type": "node", "id": 3051689941, "lat": 47.3662372, "lon": 8.5365849, "tags": {"addr:city": "Z\u00fcrich", "addr:country": "CH", "addr:housenumber": "19", "addr:postcode": "8002", "addr:street": "Beethovenstrasse", "entrance": "yes"}}, {"type": "node", "id": 3730572241, "lat": 47.3668053, "lon": 8.5360493}, {"type": "node", "id": 3730572242, "lat": 47.3668283, "lon": 8.5361118}, {"type": "node", "id": 6357594222, "lat": 47.3659149, "lon": 8.5361529}, {"type": "way", "id": 105586804, "nodes": [1215872710, 1215872712, 1215872709, 6357594222, 1215872711, 3051689941, 3730572242, 3730572241, 1215872710], "tags": {"brand": "Park Hyatt", "building": "yes", "name": "Park Hyatt Z\u00fcrich", "operator": "Z\u00fcrich Escherwiese Hotel GmbH;Hyatt Corporation", "phone": "+41 43 883 12 34", "tourism": "hotel", "website": "https://zurich.park.hyatt.com/", "wheelchair": "yes", "wikidata": "Q111409732"}}]}