{"version": 0.6, "generator": "Overpass API 0.7.60.6 e2dc3e5b", "osm3s": {"timestamp_osm_base": "2023-06-29T15:02:50Z", "copyright": "The data included in this document is from www.openstreetmap.org. The data is made available under ODbL."}, "elements": [{"type": "node", "id": 317774520, "lat": 47.3699019, "lon": 8.5444738}, {"type": "node", "id": 317774522, "lat": 47.3699823, "lon": 8.5443388}, {"type": "node", "id": 317775290, "lat": 47.370193, "lon": 8.5443925}, {"type": "node", "id": 317775291, "lat": 47.37011, "lon": 8.5442647}, {"type": "node", "id": 317775292, "lat": 47.3700341, "lon": 8.5444125}, {"type": "node", "id": 317775293, "lat": 47.3701154, "lon": 8.5445119}, {"type": "node", "id": 633640120, "lat": 47.3700099, "lon": 8.5446076, "tags": {"addr:city": "Z\u00fcrich", "addr:country": "CH", "addr:housenumber": "9", "addr:postcode": "8001", "addr:street": "Kirchgasse"}}, {"type": "node", "id": 1480291242, "lat": 47.3701232, "lon": 8.5447497}, {"type": "node", "id": 1480291243, "lat": 47.370174, "lon": 8.5441349}, {"type": "node", "id": 1480291246, "lat": 47.3703464, "lon": 8.5444143}, {"type": "node", "id": 2453777359, "lat": 47.3701574, "lon": 8.5441108}, {"type": "node", "id": 2453777360, "lat": 47.370072, "lon": 8.5442668}, {"type": "node", "id": 2453777367, "lat": 47.3700289, "lon": 8.5442446}, {"type": "node", "id": 2863883622, "lat": 47.3702602, "lon": 8.5442744, "tags": {"addr:city": "Z\u00fcrich", "addr:country": "CH", "addr:housenumber": "6", "addr:postcode": "8001", "addr:street": "Zwingliplatz"}}, {"type": "node", "id": 2863883627, "lat": 47.3700397, "lon": 8.5442557}, {"type": "node", "id": 2863883628, "lat": 47.3700472, "lon": 8.5442403}, {"type": "way", "id": 28909632, "nodes": [317775290, 317775291, 317775292, 317775293, 317775290]}, {"type": "way", "id": 134667384, "nodes": [1480291243, 2453777359, 2453777360, 2863883628, 2863883627, 2453777367, 317774522, 317774520, 633640120, 1480291242, 1480291246, 2863883622, 1480291243]}, {"type": "relation", "id": 57243, "members": [{"type": "way", "ref": 134667384, "role": "outer"}, {"type": "way", "ref": 28909632, "role": "inner"}], "tags": {"addr:housename": "UZH-KIR", "amenity": "university", "building": "office", "name": "Universit\u00e4t Z\u00fcrich Theologische Fakult\u00e4t", "source": "Stadt Z\u00fcrich Open Government Data; Geomatik + Vermessung; Tiefbau- und Entsorgungsdepartement", "type": "multipolygon"}}]}