{"version": 0.6, "generator": "Overpass API 0.7.60.6 e2dc3e5b", "osm3s": {"timestamp_osm_base": "2023-06-29T15:00:47Z", "copyright": "The data included in this document is from www.openstreetmap.org. The data is made available under ODbL."}, "elements": [{"type": "node", "id": 850608186, "lat": 47.3705225, "lon": 8.5288491}, {"type": "node", "id": 850608224, "lat": 47.3704588, "lon": 8.5287}, {"type": "node", "id": 2261078241, "lat": 47.3706414, "lon": 8.5287383}, {"type": "node", "id": 2261078247, "lat": 47.3707255, "lon": 8.5286177}, {"type": "node", "id": 3460480366, "lat": 47.3705416, "lon": 8.5286229}, {"type": "node", "id": 3460480368, "lat": 47.3706053, "lon": 8.5287719}, {"type": "node", "id": 3460480371, "lat": 47.3706345, "lon": 8.5287222}, {"type": "node", "id": 3460480375, "lat": 47.3706747, "lon": 8.5284988}, {"type": "node", "id": 3460480377, "lat": 47.3707315, "lon": 8.5286318}, {"type": "way", "id": 338896041, "nodes": [3460480368, 850608186, 850608224, 3460480366, 3460480368], "tags": {"addr:city": "Z\u00fcrich", "addr:country": "CH", "addr:housenumber": "8", "addr:postcode": "8004", "addr:street": "Weberstrasse", "building": "yes", "owner": "UBS", "start_date": "1904"}}, {"type": "way", "id": 338896067, "nodes": [2261078247, 3460480377, 3460480371, 2261078241, 3460480368, 3460480366, 3460480375, 2261078247], "tags": {"addr:city": "Z\u00fcrich", "addr:country": "CH", "addr:housenumber": "10", "addr:postcode": "8004", "addr:street": "Weberstrasse", "building": "yes", "owner": "UBS", "start_date": "1904"}}]}