{"version": 0.6, "generator": "Overpass API 0.7.60.6 e2dc3e5b", "osm3s": {"timestamp_osm_base": "2023-06-29T13:38:23Z", "copyright": "The data included in this document is from www.openstreetmap.org. The data is made available under ODbL."}, "elements": [{"type": "node", "id": 1491966857, "lat": 47.3647343, "lon": 8.5320636}, {"type": "node", "id": 1491966864, "lat": 47.3648449, "lon": 8.5320124}, {"type": "node", "id": 1491966866, "lat": 47.3648924, "lon": 8.532249}, {"type": "node", "id": 1491966867, "lat": 47.3649086, "lon": 8.5323961}, {"type": "node", "id": 1491966875, "lat": 47.3650084, "lon": 8.5322266}, {"type": "node", "id": 1491966878, "lat": 47.3650249, "lon": 8.5323741}, {"type": "node", "id": 3726400630, "lat": 47.3648152, "lon": 8.5324389}, {"type": "node", "id": 3726400632, "lat": 47.3648635, "lon": 8.5320038}, {"type": "node", "id": 3726400633, "lat": 47.3649028, "lon": 8.5321887}, {"type": "node", "id": 9705205477, "lat": 47.3649088, "lon": 8.5324008}, {"type": "node", "id": 9705205478, "lat": 47.3649003, "lon": 8.5322545}, {"type": "node", "id": 9705205491, "lat": 47.3648936, "lon": 8.5322613}, {"type": "way", "id": 135927748, "nodes": [1491966878, 9705205477, 1491966867, 9705205491, 1491966866, 9705205478, 1491966875, 1491966878], "tags": {"addr:city": "Z\u00fcrich", "addr:country": "CH", "addr:housenumber": "10", "addr:postcode": "8002", "addr:street": "Alfred-Escher-Strasse", "building": "yes", "source": "Bing"}}, {"type": "way", "id": 135927749, "nodes": [1491966857, 1491966864, 3726400632, 3726400633, 1491966866, 9705205491, 1491966867, 3726400630, 1491966857], "tags": {"addr:city": "Z\u00fcrich", "addr:country": "CH", "addr:housenumber": "62", "addr:postcode": "8002", "addr:street": "Gotthardstrasse", "building": "office", "building:levels": "6", "roof:levels": "1", "source": "Bing"}}]}