{"version": 0.6, "generator": "Overpass API 0.7.60.6 e2dc3e5b", "osm3s": {"timestamp_osm_base": "2023-06-29T13:47:35Z", "copyright": "The data included in this document is from www.openstreetmap.org. The data is made available under ODbL."}, "elements": [{"type": "node", "id": 2938529544, "lat": 47.3681614, "lon": 8.5414452, "tags": {"addr:city": "Z\u00fcrich", "addr:country": "CH", "addr:housenumber": "10", "addr:postcode": "8001", "addr:street": "B\u00f6rsenstrasse"}}, {"type": "node", "id": 2938529545, "lat": 47.3683237, "lon": 8.5417125, "tags": {"addr:city": "Z\u00fcrich", "addr:country": "CH", "addr:housenumber": "11", "addr:postcode": "8001", "addr:street": "Stadthausquai"}}, {"type": "node", "id": 2938529547, "lat": 47.3682823, "lon": 8.5411466, "tags": {"addr:city": "Z\u00fcrich", "addr:country": "CH", "addr:housenumber": "12", "addr:postcode": "8001", "addr:street": "Fraum\u00fcnsterstrasse"}}, {"type": "node", "id": 2938529548, "lat": 47.3684996, "lon": 8.5417241, "tags": {"addr:city": "Z\u00fcrich", "addr:country": "CH", "addr:housenumber": "13", "addr:postcode": "8001", "addr:street": "Stadthausquai"}}, {"type": "node", "id": 2938529549, "lat": 47.3684862, "lon": 8.5410853, "tags": {"addr:city": "Z\u00fcrich", "addr:country": "CH", "addr:housenumber": "14", "addr:postcode": "8001", "addr:street": "Fraum\u00fcnsterstrasse"}}, {"type": "node", "id": 2938530132, "lat": 47.368147, "lon": 8.5411876}, {"type": "node", "id": 2938530134, "lat": 47.3681752, "lon": 8.5417033}, {"type": "node", "id": 2938530154, "lat": 47.3685482, "lon": 8.5410671}, {"type": "node", "id": 2938530157, "lat": 47.3685845, "lon": 8.5417306}, {"type": "node", "id": 2938530159, "lat": 47.3685964, "lon": 8.5414033}, {"type": "node", "id": 5281831649, "lat": 47.3681581, "lon": 8.5411842}, {"type": "node", "id": 5281831650, "lat": 47.3681856, "lon": 8.5417039}, {"type": "way", "id": 290296830, "nodes": [2938530154, 2938529549, 2938529547, 5281831649, 2938530132, 2938529544, 2938530134, 5281831650, 2938529545, 2938529548, 2938530157, 2938530159, 2938530154], "tags": {"addr:city": "Z\u00fcrich", "addr:country": "CH", "addr:postcode": "8001", "building": "commercial", "name": "Metropol", "note": "Bis 2012 im Besitz der Bank Clariden Leu/Credit Suisse", "owner": "Schweizerische Nationalbank (SNB)", "source": "Stadt Z\u00fcrich Open Government Data; Geomatik + Vermessung; Tiefbau- und Entsorgungsdepartement", "start_date": "1893", "wikidata": "Q29574344"}}]}