{"version": 0.6, "generator": "Overpass API 0.7.60.6 e2dc3e5b", "osm3s": {"timestamp_osm_base": "2023-06-29T10:58:16Z", "copyright": "The data included in this document is from www.openstreetmap.org. The data is made available under ODbL."}, "elements": [{"type": "node", "id": 3163050061, "lat": 47.3706243, "lon": 8.5279153, "tags": {"entrance": "yes"}}, {"type": "node", "id": 3460480364, "lat": 47.370514, "lon": 8.5279678}, {"type": "node", "id": 3460480367, "lat": 47.3705743, "lon": 8.5278563}, {"type": "node", "id": 3460480369, "lat": 47.3706034, "lon": 8.5280732}, {"type": "node", "id": 3460480370, "lat": 47.3706079, "lon": 8.52806}, {"type": "node", "id": 3460480374, "lat": 47.3706621, "lon": 8.5279598}, {"type": "node", "id": 7629924193, "lat": 47.3706095, "lon": 8.5280619}, {"type": "way", "id": 338896060, "nodes": [3460480367, 3163050061, 3460480374, 3460480370, 7629924193, 3460480369, 3460480364, 3460480367], "tags": {"addr:city": "Z\u00fcrich", "addr:country": "CH", "addr:housenumber": "59", "addr:postcode": "8004", "addr:street": "Hallwylstrasse", "building": "apartments"}}]}