{"version": 0.6, "generator": "Overpass API 0.7.60.6 e2dc3e5b", "osm3s": {"timestamp_osm_base": "2023-06-29T12:49:34Z", "copyright": "The data included in this document is from www.openstreetmap.org. The data is made available under ODbL."}, "elements": [{"type": "node", "id": 384763006, "lat": 47.3673114, "lon": 8.5273146}, {"type": "node", "id": 384763007, "lat": 47.3671373, "lon": 8.5273584}, {"type": "node", "id": 384763008, "lat": 47.3671483, "lon": 8.5274542}, {"type": "node", "id": 384763009, "lat": 47.3670397, "lon": 8.5274814}, {"type": "node", "id": 384763010, "lat": 47.36706, "lon": 8.5276573}, {"type": "node", "id": 384763011, "lat": 47.3673427, "lon": 8.5275863}, {"type": "way", "id": 33633581, "nodes": [384763006, 384763007, 384763008, 384763009, 384763010, 384763011, 384763006], "tags": {"addr:city": "Z\u00fcrich", "addr:country": "CH", "addr:housenumber": "72", "addr:postcode": "8002", "addr:street": "Brandschenkestrasse", "building": "apartments"}}]}