{"version": 0.6, "generator": "Overpass API 0.7.60.6 e2dc3e5b", "osm3s": {"timestamp_osm_base": "2023-06-29T11:05:30Z", "copyright": "The data included in this document is from www.openstreetmap.org. The data is made available under ODbL."}, "elements": [{"type": "node", "id": 1388636738, "lat": 47.3676882, "lon": 8.5334815}, {"type": "node", "id": 1388651131, "lat": 47.3674294, "lon": 8.5334592}, {"type": "node", "id": 1388651147, "lat": 47.3674871, "lon": 8.5336282}, {"type": "node", "id": 1388651149, "lat": 47.3674131, "lon": 8.5334061}, {"type": "node", "id": 1388651156, "lat": 47.3674784, "lon": 8.5333551}, {"type": "node", "id": 1388651167, "lat": 47.3676308, "lon": 8.5333123}, {"type": "node", "id": 3728343570, "lat": 47.3675394, "lon": 8.5333409}, {"type": "node", "id": 3728343584, "lat": 47.3676207, "lon": 8.5332834}, {"type": "way", "id": 124900879, "nodes": [1388636738, 1388651167, 3728343584, 3728343570, 1388651156, 1388651149, 1388651131, 1388651147, 1388636738], "tags": {"addr:city": "Z\u00fcrich", "addr:country": "CH", "addr:housenumber": "47", "addr:postcode": "8002", "addr:street": "T\u00f6distrasse", "building": "yes"}}]}