{"version": 0.6, "generator": "Overpass API 0.7.60.6 e2dc3e5b", "osm3s": {"timestamp_osm_base": "2023-06-29T13:26:12Z", "copyright": "The data included in this document is from www.openstreetmap.org. The data is made available under ODbL."}, "elements": [{"type": "node", "id": 3327335783, "lat": 47.3735416, "lon": 8.5347686}, {"type": "node", "id": 3327335784, "lat": 47.3736816, "lon": 8.5344586}, {"type": "node", "id": 3327335785, "lat": 47.373717, "lon": 8.5347165}, {"type": "node", "id": 3327335786, "lat": 47.3737681, "lon": 8.5346033}, {"type": "node", "id": 3327335787, "lat": 47.3737817, "lon": 8.5350051}, {"type": "node", "id": 3327335788, "lat": 47.3737867, "lon": 8.5345621}, {"type": "node", "id": 3327335792, "lat": 47.3738247, "lon": 8.5348227}, {"type": "node", "id": 3327339694, "lat": 47.3738302, "lon": 8.5348107}, {"type": "node", "id": 3327339699, "lat": 47.3738506, "lon": 8.5348527}, {"type": "node", "id": 3327339700, "lat": 47.3738574, "lon": 8.5348375}, {"type": "way", "id": 326116403, "nodes": [3327335787, 3327335783, 3327335784, 3327335788, 3327335786, 3327335785, 3327335792, 3327339694, 3327339700, 3327339699, 3327335787], "tags": {"addr:city": "Z\u00fcrich", "addr:country": "CH", "addr:housenumber": "11", "addr:postcode": "8001", "addr:street": "L\u00f6wenstrasse", "building": "commercial", "building:levels": "6", "owner": "BVK Immobilien", "roof:levels": "1", "source": "Stadt Z\u00fcrich Open Government Data; Geomatik + Vermessung; Tiefbau- und Entsorgungsdepartement"}}]}