{"version": 0.6, "generator": "Overpass API 0.7.60.6 e2dc3e5b", "osm3s": {"timestamp_osm_base": "2023-06-29T12:43:29Z", "copyright": "The data included in this document is from www.openstreetmap.org. The data is made available under ODbL."}, "elements": [{"type": "node", "id": 1245859268, "lat": 47.3670843, "lon": 8.5292448}, {"type": "node", "id": 1245859396, "lat": 47.367021, "lon": 8.5292091}, {"type": "node", "id": 1245859458, "lat": 47.3671133, "lon": 8.5291327}, {"type": "node", "id": 1245859486, "lat": 47.3670482, "lon": 8.5290918}, {"type": "node", "id": 8375579841, "lat": 47.3670313, "lon": 8.5291694}, {"type": "node", "id": 8375579842, "lat": 47.3670285, "lon": 8.5291679}, {"type": "node", "id": 8375579843, "lat": 47.3670856, "lon": 8.5291171}, {"type": "node", "id": 8375579844, "lat": 47.3670865, "lon": 8.5291134}, {"type": "way", "id": 108633072, "nodes": [1245859458, 1245859268, 1245859396, 8375579841, 8375579842, 1245859486, 8375579844, 8375579843, 1245859458], "tags": {"addr:city": "Z\u00fcrich", "addr:country": "CH", "addr:housenumber": "52", "addr:postcode": "8002", "addr:street": "Parkring", "building": "yes"}}]}