{"version": 0.6, "generator": "Overpass API 0.7.60.6 e2dc3e5b", "osm3s": {"timestamp_osm_base": "2023-06-29T11:00:17Z", "copyright": "The data included in this document is from www.openstreetmap.org. The data is made available under ODbL."}, "elements": [{"type": "node", "id": 1088058906, "lat": 47.3775134, "lon": 8.5446215}, {"type": "node", "id": 1088059098, "lat": 47.3773777, "lon": 8.5447864}, {"type": "node", "id": 1088059229, "lat": 47.3775212, "lon": 8.5447699}, {"type": "node", "id": 1352031802, "lat": 47.3773744, "lon": 8.5446348}, {"type": "node", "id": 1352031815, "lat": 47.3775014, "lon": 8.5446229}, {"type": "way", "id": 93699768, "nodes": [1088058906, 1352031815, 1352031802, 1088059098, 1088059229, 1088058906], "tags": {"addr:city": "Z\u00fcrich", "addr:country": "CH", "addr:housenumber": "5", "addr:postcode": "8001", "addr:street": "Auf der Mauer", "building": "apartments", "source": "Stadt Z\u00fcrich Open Government Data; Geomatik + Vermessung; Tiefbau- und Entsorgungsdepartement"}}]}