{"version": 0.6, "generator": "Overpass API 0.7.60.6 e2dc3e5b", "osm3s": {"timestamp_osm_base": "2023-06-29T15:20:01Z", "copyright": "The data included in this document is from www.openstreetmap.org. The data is made available under ODbL."}, "elements": [{"type": "node", "id": 1245859277, "lat": 47.3685554, "lon": 8.5294354}, {"type": "node", "id": 1245859311, "lat": 47.3684983, "lon": 8.5295083}, {"type": "node", "id": 1245859631, "lat": 47.368639, "lon": 8.5297487}, {"type": "node", "id": 1245859773, "lat": 47.3686961, "lon": 8.5296758}, {"type": "node", "id": 3612616310, "lat": 47.3677736, "lon": 8.5294074}, {"type": "node", "id": 3612616315, "lat": 47.3678572, "lon": 8.5295606}, {"type": "node", "id": 3612616317, "lat": 47.3678999, "lon": 8.5292572}, {"type": "node", "id": 3612616320, "lat": 47.3679726, "lon": 8.5291706}, {"type": "node", "id": 3612616321, "lat": 47.3679784, "lon": 8.5291812}, {"type": "node", "id": 3612616323, "lat": 47.3680562, "lon": 8.5293238}, {"type": "way", "id": 108633082, "nodes": [1245859773, 1245859277, 1245859311, 1245859631, 1245859773], "tags": {"addr:city": "Z\u00fcrich", "addr:country": "CH", "addr:housenumber": "50", "addr:postcode": "8002", "addr:street": "Brandschenkestrasse", "building": "commercial"}}, {"type": "way", "id": 355698709, "nodes": [3612616320, 3612616321, 3612616323, 3612616315, 3612616310, 3612616317, 3612616320], "tags": {"addr:city": "Z\u00fcrich", "addr:country": "CH", "addr:housenumber": "54", "addr:postcode": "8002", "addr:street": "Brandschenkestrasse", "building": "yes"}}]}