{"version": 0.6, "generator": "Overpass API 0.7.60.6 e2dc3e5b", "osm3s": {"timestamp_osm_base": "2023-06-29T11:03:26Z", "copyright": "The data included in this document is from www.openstreetmap.org. The data is made available under ODbL."}, "elements": [{"type": "node", "id": 921512092, "lat": 47.3715819, "lon": 8.5354705}, {"type": "node", "id": 921512112, "lat": 47.3712185, "lon": 8.5350649}, {"type": "node", "id": 921512176, "lat": 47.3714856, "lon": 8.5353237}, {"type": "node", "id": 921512206, "lat": 47.3711288, "lon": 8.5348988}, {"type": "node", "id": 3336763920, "lat": 47.3712046, "lon": 8.5348112}, {"type": "node", "id": 3336763921, "lat": 47.3712764, "lon": 8.5349994}, {"type": "node", "id": 3336763924, "lat": 47.3712977, "lon": 8.5347257}, {"type": "node", "id": 3336763927, "lat": 47.3713809, "lon": 8.5351639}, {"type": "node", "id": 3336763928, "lat": 47.3714841, "lon": 8.5350165}, {"type": "node", "id": 3336763930, "lat": 47.371589, "lon": 8.5354814}, {"type": "node", "id": 3336763932, "lat": 47.3716922, "lon": 8.5353339}, {"type": "way", "id": 326969821, "nodes": [3336763928, 3336763932, 3336763930, 921512092, 921512176, 3336763927, 3336763928], "tags": {"addr:city": "Z\u00fcrich", "addr:country": "CH", "addr:housenumber": "35", "addr:postcode": "8001", "addr:street": "Talacker", "building": "commercial", "building:levels": "6", "source": "Stadt Z\u00fcrich Open Government Data; Geomatik + Vermessung; Tiefbau- und Entsorgungsdepartement"}}, {"type": "way", "id": 326969825, "nodes": [921512206, 3336763920, 3336763924, 3336763928, 3336763927, 3336763921, 921512112, 921512206], "tags": {"addr:city": "Z\u00fcrich", "addr:country": "CH", "addr:housenumber": "70", "addr:postcode": "8001", "addr:street": "Talstrasse", "building": "commercial", "building:levels": "6", "source": "Stadt Z\u00fcrich Open Government Data; Geomatik + Vermessung; Tiefbau- und Entsorgungsdepartement"}}]}