{"version": 0.6, "generator": "Overpass API 0.7.60.6 e2dc3e5b", "osm3s": {"timestamp_osm_base": "2023-06-29T11:02:25Z", "copyright": "The data included in this document is from www.openstreetmap.org. The data is made available under ODbL."}, "elements": [{"type": "node", "id": 1388651056, "lat": 47.3655755, "lon": 8.5341937}, {"type": "node", "id": 1388651059, "lat": 47.3656328, "lon": 8.534365}, {"type": "node", "id": 1388651061, "lat": 47.3656857, "lon": 8.5346165}, {"type": "node", "id": 1388651071, "lat": 47.3657704, "lon": 8.5348774}, {"type": "node", "id": 1388651072, "lat": 47.3658362, "lon": 8.5340036}, {"type": "node", "id": 1388651073, "lat": 47.3658935, "lon": 8.5341749}, {"type": "node", "id": 1388651074, "lat": 47.3659145, "lon": 8.5344547}, {"type": "node", "id": 1388651076, "lat": 47.3659992, "lon": 8.5347156}, {"type": "way", "id": 124900864, "nodes": [1388651076, 1388651071, 1388651061, 1388651074, 1388651076], "tags": {"addr:city": "Z\u00fcrich", "addr:country": "CH", "addr:housenumber": "27", "addr:postcode": "8002", "addr:street": "T\u00f6distrasse", "building": "yes"}}, {"type": "way", "id": 124900874, "nodes": [1388651073, 1388651059, 1388651056, 1388651072, 1388651073], "tags": {"addr:city": "Z\u00fcrich", "addr:country": "CH", "addr:housenumber": "30", "addr:postcode": "8002", "addr:street": "Genferstrasse", "building": "yes"}}]}