{"version": 0.6, "generator": "Overpass API 0.7.60.6 e2dc3e5b", "osm3s": {"timestamp_osm_base": "2023-06-29T10:59:17Z", "copyright": "The data included in this document is from www.openstreetmap.org. The data is made available under ODbL."}, "elements": [{"type": "node", "id": 894108029, "lat": 47.3715848, "lon": 8.5432416}, {"type": "node", "id": 894108035, "lat": 47.3714942, "lon": 8.5433762}, {"type": "node", "id": 894108083, "lat": 47.3716545, "lon": 8.5433726}, {"type": "node", "id": 894108086, "lat": 47.3715, "lon": 8.5434106}, {"type": "node", "id": 894108094, "lat": 47.371643, "lon": 8.543224}, {"type": "node", "id": 2866198322, "lat": 47.3714859, "lon": 8.543265}, {"type": "node", "id": 2866198328, "lat": 47.3715782, "lon": 8.5434002}, {"type": "way", "id": 75731998, "nodes": [894108094, 894108029, 2866198322, 894108035, 894108086, 2866198328, 894108083, 894108094], "tags": {"addr:city": "Z\u00fcrich", "addr:country": "CH", "addr:housenumber": "4", "addr:postcode": "8001", "addr:street": "Krebsgasse", "building": "yes", "source": "Stadt Z\u00fcrich Open Government Data; Geomatik + Vermessung; Tiefbau- und Entsorgungsdepartement"}}]}